<?xml version="1.0" encoding="utf-8"?>
<address>
  <Area name="华北">
    <province name="北京市" longitude="116.48645" latitude="40.23427">
      <city name="北京辖区" longitude="116.421885" latitude="39.938574">
        <country name="东城区" longitude="116.421885" latitude="39.938574" />
        <country name="西城区" longitude="116.37319" latitude="39.93428" />
        <country name="崇文区" longitude="116.424636" latitude="39.889292" />
        <country name="宣武区" longitude="116.369352" latitude="39.891531" />
        <country name="朝阳区" longitude="116.521695" latitude="39.958953" />
        <country name="丰台区" longitude="116.25837" latitude="39.841938" />
        <country name="石景山区" longitude="116.184556" latitude="39.938867" />
        <country name="海淀区" longitude="116.239678" latitude="40.033162" />
        <country name="门头沟区" longitude="115.795795" latitude="40.000893" />
        <country name="房山区" longitude="115.862836" latitude="39.726753" />
        <country name="通州区" longitude="116.740079" latitude="39.809815" />
        <country name="顺义区" longitude="116.728229" latitude="40.154951" />
        <country name="昌平区" longitude="116.216456" latitude="40.221724" />
        <country name="大兴区" longitude="116.425195" latitude="39.65279" />
        <country name="怀柔区" longitude="116.593408" latitude="40.638139" />
        <country name="平谷区" longitude="117.150433" latitude="40.215925" />
      </city>
      <city name="北京辖县" longitude="117.001201" latitude="40.532843">
        <country name="密云县" longitude="117.001201" latitude="40.532843" />
        <country name="延庆县" longitude="116.169735" latitude="40.545156" />
      </city>
    </province>
    <province name="天津市" longitude="117.42395" latitude="39.32055">
      <city name="天津辖区" longitude="117.202814" latitude="39.124809">
        <country name="和平区" longitude="117.202814" latitude="39.124809" />
        <country name="河东区" longitude="117.261693" latitude="39.126626" />
        <country name="河西区" longitude="117.236165" latitude="39.084494" />
        <country name="南开区" longitude="117.162728" latitude="39.116987" />
        <country name="河北区" longitude="117.220297" latitude="39.173149" />
        <country name="红桥区" longitude="117.162217" latitude="39.170621" />
        <country name="塘沽区" longitude="117.649081" latitude="39.007936" />
        <country name="汉沽区" longitude="117.87353" latitude="39.247773" />
        <country name="大港区" longitude="117.380794" latitude="38.729573" />
        <country name="东丽区" longitude="117.414782" latitude="39.139605" />
        <country name="西青区" longitude="117.126201" latitude="39.035065" />
        <country name="津南区" longitude="117.39291" latitude="38.969791" />
        <country name="北辰区" longitude="117.180606" latitude="39.259131" />
        <country name="武清区" longitude="117.034578" latitude="39.457043" />
        <country name="宝坻区" longitude="117.411421" latitude="39.615544" />
      </city>
      <city name="天津辖县" longitude="117.689424" latitude="39.381561">
        <country name="宁河县" longitude="117.689424" latitude="39.381561" />
        <country name="静海县" longitude="116.972772" latitude="38.861262" />
        <country name="蓟县" longitude="117.441159" latitude="40.009614" />
      </city>
    </province>
    <province name="河北省" longitude="114.35445" latitude="38.14986">
      <city name="石家庄市" longitude="114.592622" latitude="38.076875">
        <country name="长安区" longitude="114.592622" latitude="38.076875" />
        <country name="桥东区" longitude="114.510784" latitude="38.06339" />
        <country name="桥西区" longitude="114.43814" latitude="38.033365" />
        <country name="新华区" longitude="114.453501" latitude="38.117219" />
        <country name="井陉矿区" longitude="114.050744" latitude="38.081098" />
        <country name="裕华区" longitude="114.586383" latitude="38.014621" />
        <country name="井陉县" longitude="114.077952" latitude="38.000891" />
        <country name="正定县" longitude="114.570201" latitude="38.227073" />
        <country name="栾城县" longitude="114.632968" latitude="37.906161" />
        <country name="行唐县" longitude="114.457436" latitude="38.546695" />
        <country name="灵寿县" longitude="114.187819" latitude="38.510936" />
        <country name="高邑县" longitude="114.607385" latitude="37.622651" />
        <country name="深泽县" longitude="115.233102" latitude="38.194681" />
        <country name="赞皇县" longitude="114.289553" latitude="37.628132" />
        <country name="无极县" longitude="114.95114" latitude="38.183286" />
        <country name="平山县" longitude="113.872429" latitude="38.408762" />
        <country name="元氏县" longitude="114.42836" latitude="37.807353" />
        <country name="赵县" longitude="114.834938" latitude="37.769612" />
        <country name="辛集市" longitude="115.29875" latitude="37.924122" />
        <country name="藁城市" longitude="114.816476" latitude="38.054936" />
        <country name="晋州市" longitude="115.091738" latitude="37.991145" />
        <country name="新乐市" longitude="114.762271" latitude="38.377578" />
        <country name="鹿泉市" longitude="114.347323" latitude="38.084707" />
      </city>
      <city name="唐山市" longitude="118.20604" latitude="39.612987">
        <country name="路南区" longitude="118.20604" latitude="39.612987" />
        <country name="路北区" longitude="118.18507" latitude="39.657846" />
        <country name="古冶区" longitude="118.462232" latitude="39.723045" />
        <country name="开平区" longitude="118.257848" latitude="39.692123" />
        <country name="丰南区" longitude="118.085847" latitude="39.384663" />
        <country name="丰润区" longitude="118.05949" latitude="39.789909" />
        <country name="滦县" longitude="118.583777" latitude="39.785509" />
        <country name="滦南县" longitude="118.549385" latitude="39.360739" />
        <country name="乐亭县" longitude="118.939943" latitude="39.357229" />
        <country name="迁西县" longitude="118.371389" latitude="40.238508" />
        <country name="玉田县" longitude="117.734753" latitude="39.818843" />
        <country name="唐海县" longitude="118.426721" latitude="39.27343" />
        <country name="遵化市" longitude="117.957639" latitude="40.137901" />
        <country name="迁安市" longitude="118.686955" latitude="40.040443" />
      </city>
      <city name="秦皇岛市" longitude="119.577617" latitude="39.98878">
        <country name="海港区" longitude="119.577617" latitude="39.98878" />
        <country name="山海关区" longitude="119.713616" latitude="40.0329" />
        <country name="北戴河区" longitude="119.479321" latitude="39.854293" />
        <country name="青龙满族自治县" longitude="119.137582" latitude="40.35365" />
        <country name="昌黎县" longitude="119.094621" latitude="39.638021" />
        <country name="抚宁县" longitude="119.3951" latitude="40.012967" />
        <country name="卢龙县" longitude="118.985564" latitude="39.920978" />
      </city>
      <city name="邯郸市" longitude="114.46929" latitude="36.536153">
        <country name="邯山区" longitude="114.46929" latitude="36.536153" />
        <country name="丛台区" longitude="114.511068" latitude="36.637215" />
        <country name="复兴区" longitude="114.448095" latitude="36.610369" />
        <country name="峰峰矿区" longitude="114.190422" latitude="36.474685" />
        <country name="邯郸县" longitude="114.494486" latitude="36.620347" />
        <country name="临漳县" longitude="114.586944" latitude="36.266142" />
        <country name="成安县" longitude="114.704775" latitude="36.428151" />
        <country name="大名县" longitude="115.248635" latitude="36.309544" />
        <country name="涉县" longitude="113.742914" latitude="36.598105" />
        <country name="磁县" longitude="114.255101" latitude="36.406731" />
        <country name="肥乡县" longitude="114.836905" latitude="36.577261" />
        <country name="永年县" longitude="114.641602" latitude="36.7702" />
        <country name="邱县" longitude="115.206702" latitude="36.79727" />
        <country name="鸡泽县" longitude="114.869566" latitude="36.873677" />
        <country name="广平县" longitude="115.020874" latitude="36.511926" />
        <country name="馆陶县" longitude="115.299157" latitude="36.618537" />
        <country name="魏县" longitude="114.936" latitude="36.250568" />
        <country name="曲周县" longitude="115.038532" latitude="36.752651" />
        <country name="武安市" longitude="114.058334" latitude="36.748995" />
      </city>
      <city name="邢台市" longitude="114.521297" latitude="37.059046">
        <country name="桥东区" longitude="114.521297" latitude="37.059046" />
        <country name="桥西区" longitude="114.468401" latitude="37.05358" />
        <country name="邢台县" longitude="114.167744" latitude="37.152422" />
        <country name="临城县" longitude="114.384665" latitude="37.463138" />
        <country name="内丘县" longitude="114.530622" latitude="37.300525" />
        <country name="柏乡县" longitude="114.707424" latitude="37.517418" />
        <country name="隆尧县" longitude="114.792916" latitude="37.364688" />
        <country name="任县" longitude="114.769967" latitude="37.17463" />
        <country name="南和县" longitude="114.753089" latitude="37.016964" />
        <country name="宁晋县" longitude="115.021678" latitude="37.612087" />
        <country name="巨鹿县" longitude="115.058886" latitude="37.278679" />
        <country name="新河县" longitude="115.257204" latitude="37.499363" />
        <country name="广宗县" longitude="115.198173" latitude="37.083549" />
        <country name="平乡县" longitude="115.004819" latitude="37.05611" />
        <country name="威县" longitude="115.387725" latitude="37.078395" />
        <country name="清河县" longitude="115.69159" latitude="37.04053" />
        <country name="临西县" longitude="115.528441" latitude="36.858027" />
        <country name="南宫市" longitude="115.47941" latitude="37.286427" />
        <country name="沙河市" longitude="114.283093" latitude="36.938635" />
      </city>
      <city name="保定市" longitude="115.412245" latitude="38.881183">
        <country name="新市区" longitude="115.412245" latitude="38.881183" />
        <country name="北市区" longitude="115.532912" latitude="38.897511" />
        <country name="南市区" longitude="115.484784" latitude="38.821877" />
        <country name="满城县" longitude="115.277554" latitude="38.970233" />
        <country name="清苑县" longitude="115.493492" latitude="38.738336" />
        <country name="涞水县" longitude="115.444628" latitude="39.616118" />
        <country name="阜平县" longitude="114.164211" latitude="38.894806" />
        <country name="徐水县" longitude="115.5796" latitude="39.041872" />
        <country name="定兴县" longitude="115.755046" latitude="39.211518" />
        <country name="唐县" longitude="114.806091" latitude="38.904521" />
        <country name="高阳县" longitude="115.838442" latitude="38.673021" />
        <country name="容城县" longitude="115.908779" latitude="39.057814" />
        <country name="涞源县" longitude="114.730451" latitude="39.366937" />
        <country name="望都县" longitude="115.178346" latitude="38.679015" />
        <country name="安新县" longitude="115.886731" latitude="38.878255" />
        <country name="易县" longitude="115.254022" latitude="39.317566" />
        <country name="曲阳县" longitude="114.660664" latitude="38.706612" />
        <country name="蠡县" longitude="115.669282" latitude="38.528232" />
        <country name="顺平县" longitude="115.073989" latitude="38.927951" />
        <country name="博野县" longitude="115.487786" latitude="38.459123" />
        <country name="雄县" longitude="116.183299" latitude="39.042787" />
        <country name="涿州市" longitude="115.999054" latitude="39.482482" />
        <country name="定州市" longitude="115.057407" latitude="38.465839" />
        <country name="安国市" longitude="115.334827" latitude="38.39374" />
        <country name="高碑店市" longitude="116.040934" latitude="39.265088" />
      </city>
      <city name="张家口市" longitude="114.915166" latitude="40.78291">
        <country name="桥东区" longitude="114.915166" latitude="40.78291" />
        <country name="桥西区" longitude="114.861623" latitude="40.837646" />
        <country name="宣化区" longitude="115.258472" latitude="40.632394" />
        <country name="下花园区" longitude="115.350498" latitude="40.568837" />
        <country name="宣化县" longitude="115.035435" latitude="40.560152" />
        <country name="张北县" longitude="114.772897" latitude="41.293641" />
        <country name="康保县" longitude="114.606536" latitude="41.784595" />
        <country name="沽源县" longitude="115.636092" latitude="41.580404" />
        <country name="尚义县" longitude="114.152528" latitude="41.132635" />
        <country name="蔚县" longitude="114.712537" latitude="39.879353" />
        <country name="阳原县" longitude="114.394396" latitude="40.138642" />
        <country name="怀安县" longitude="114.502607" latitude="40.559534" />
        <country name="万全县" longitude="114.611453" latitude="40.847108" />
        <country name="怀来县" longitude="115.634061" latitude="40.347984" />
        <country name="涿鹿县" longitude="115.223925" latitude="40.101876" />
        <country name="赤城县" longitude="115.892223" latitude="40.956026" />
        <country name="崇礼县" longitude="115.219891" latitude="41.02606" />
      </city>
      <city name="承德市" longitude="117.948355" latitude="40.971406">
        <country name="双桥区" longitude="117.948355" latitude="40.971406" />
        <country name="双滦区" longitude="117.809336" latitude="41.051453" />
        <country name="鹰手营子矿区" longitude="117.679426" latitude="40.53176" />
        <country name="承德县" longitude="118.125718" latitude="40.973242" />
        <country name="兴隆县" longitude="117.726136" latitude="40.458142" />
        <country name="平泉县" longitude="118.739324" latitude="41.075304" />
        <country name="滦平县" longitude="117.369563" latitude="40.924821" />
        <country name="隆化县" longitude="117.56993" latitude="41.517995" />
        <country name="丰宁满族自治县" longitude="116.623795" latitude="41.425684" />
        <country name="宽城满族自治县" longitude="118.635888" latitude="40.57809" />
        <country name="围场满族蒙古族自治县" longitude="117.547022" latitude="42.108025" />
      </city>
      <city name="沧州市" longitude="116.893059" latitude="38.308375">
        <country name="新华区" longitude="116.893059" latitude="38.308375" />
        <country name="运河区" longitude="116.844854" latitude="38.314446" />
        <country name="沧县" longitude="116.862714" latitude="38.302139" />
        <country name="青县" longitude="116.851234" latitude="38.565778" />
        <country name="东光县" longitude="116.677832" latitude="37.887452" />
        <country name="海兴县" longitude="117.567264" latitude="38.14247" />
        <country name="盐山县" longitude="117.26694" latitude="37.96037" />
        <country name="肃宁县" longitude="115.885816" latitude="38.422207" />
        <country name="南皮县" longitude="116.86585" latitude="38.023186" />
        <country name="吴桥县" longitude="116.508033" latitude="37.661863" />
        <country name="献县" longitude="116.175505" latitude="38.242726" />
        <country name="孟村回族自治县" longitude="117.159538" latitude="38.091265" />
        <country name="泊头市" longitude="116.389236" latitude="38.090279" />
        <country name="任丘市" longitude="116.163214" latitude="38.741105" />
        <country name="黄骅市" longitude="117.400217" latitude="38.401522" />
        <country name="河间市" longitude="116.271593" latitude="38.483721" />
      </city>
      <city name="廊坊市" longitude="116.796123" latitude="39.345312">
        <country name="安次区" longitude="116.796123" latitude="39.345312" />
        <country name="广阳区" longitude="116.694236" latitude="39.533686" />
        <country name="固安县" longitude="116.28967" latitude="39.351106" />
        <country name="永清县" longitude="116.560557" latitude="39.302836" />
        <country name="香河县" longitude="117.051306" latitude="39.7431" />
        <country name="大城县" longitude="116.588639" latitude="38.668803" />
        <country name="文安县" longitude="116.494817" latitude="38.91139" />
        <country name="大厂回族自治县" longitude="116.955076" latitude="39.895316" />
        <country name="霸州市" longitude="116.574306" latitude="39.10932" />
        <country name="三河市" longitude="117.021284" latitude="39.967428" />
      </city>
      <city name="衡水市" longitude="115.666657" latitude="37.724218">
        <country name="桃城区" longitude="115.666657" latitude="37.724218" />
        <country name="枣强县" longitude="115.757677" latitude="37.461024" />
        <country name="武邑县" longitude="115.944507" latitude="37.827679" />
        <country name="武强县" longitude="115.920118" latitude="38.050513" />
        <country name="饶阳县" longitude="115.740007" latitude="38.223059" />
        <country name="安平县" longitude="115.490416" latitude="38.243196" />
        <country name="故城县" longitude="115.978057" latitude="37.356998" />
        <country name="景县" longitude="116.200134" latitude="37.668477" />
        <country name="阜城县" longitude="116.328425" latitude="37.912309" />
        <country name="冀州市" longitude="115.470293" latitude="37.55607" />
        <country name="深州市" longitude="115.586699" latitude="37.957013" />
      </city>
    </province>
    <province name="山西省" longitude="xxxxx" latitude="xxxxx">
      <city name="太原市" longitude="112.577409" latitude="37.753528">
        <country name="小店区" longitude="112.577409" latitude="37.753528" />
        <country name="迎泽区" longitude="112.663203" latitude="37.865737" />
        <country name="杏花岭区" longitude="112.629836" latitude="37.915556" />
        <country name="尖草坪区" longitude="112.48844" latitude="37.972758" />
        <country name="万柏林区" longitude="112.402857" latitude="37.894693" />
        <country name="晋源区" longitude="112.481587" latitude="37.748675" />
        <country name="清徐县" longitude="112.387085" latitude="37.593242" />
        <country name="阳曲县" longitude="112.672659" latitude="38.158246" />
        <country name="娄烦县" longitude="111.797821" latitude="38.034584" />
        <country name="古交市" longitude="112.107739" latitude="37.905179" />
      </city>
      <city name="大同市" longitude="113.296966" latitude="40.102543">
        <country name="城区" longitude="113.296966" latitude="40.102543" />
        <country name="矿区" longitude="113.27681" latitude="40.07886" />
        <country name="南郊区" longitude="113.226457" latitude="40.051891" />
        <country name="新荣区" longitude="113.236894" latitude="40.267127" />
        <country name="阳高县" longitude="113.823181" latitude="40.222312" />
        <country name="天镇县" longitude="114.16813" latitude="40.403529" />
        <country name="广灵县" longitude="114.161702" latitude="39.768994" />
        <country name="灵丘县" longitude="114.213095" latitude="39.377268" />
        <country name="浑源县" longitude="113.710759" latitude="39.634162" />
        <country name="左云县" longitude="112.777856" latitude="40.000738" />
        <country name="大同县" longitude="113.583866" latitude="40.001627" />
      </city>
      <city name="阳泉市" longitude="113.612838" latitude="37.857865">
        <country name="城区" longitude="113.612838" latitude="37.857865" />
        <country name="矿区" longitude="113.540771" latitude="37.890804" />
        <country name="郊区" longitude="113.568086" latitude="37.911504" />
        <country name="平定县" longitude="113.768978" latitude="37.849271" />
        <country name="盂县" longitude="113.360967" latitude="38.229386" />
      </city>
      <city name="长治市" longitude="113.123169" latitude="36.184511">
        <country name="城区" longitude="113.123169" latitude="36.184511" />
        <country name="郊区" longitude="113.110696" latitude="36.27034" />
        <country name="长治县" longitude="113.086194" latitude="36.02468" />
        <country name="襄垣县" longitude="112.988973" latitude="36.580201" />
        <country name="屯留县" longitude="112.750363" latitude="36.34261" />
        <country name="平顺县" longitude="113.533689" latitude="36.221794" />
        <country name="黎城县" longitude="113.396852" latitude="36.619368" />
        <country name="壶关县" longitude="113.371998" latitude="35.992652" />
        <country name="长子县" longitude="112.802254" latitude="36.110999" />
        <country name="武乡县" longitude="112.96752" latitude="36.888323" />
        <country name="沁县" longitude="112.65221" latitude="36.707383" />
        <country name="沁源县" longitude="112.290094" latitude="36.701567" />
        <country name="潞城市" longitude="113.254387" latitude="36.374406" />
      </city>
      <city name="晋城市" longitude="112.84856" latitude="35.53139">
        <country name="城区" longitude="112.84856" latitude="35.53139" />
        <country name="沁水县" longitude="112.37743" latitude="35.751489" />
        <country name="阳城县" longitude="112.361527" latitude="35.426541" />
        <country name="陵川县" longitude="113.343387" latitude="35.690744" />
        <country name="泽州县" longitude="112.870985" latitude="35.475851" />
        <country name="高平市" longitude="112.935115" latitude="35.809742" />
      </city>
      <city name="朔州市" longitude="112.5562" latitude="39.243272">
        <country name="朔城区" longitude="112.5562" latitude="39.243272" />
        <country name="平鲁区" longitude="112.30435" latitude="39.640007" />
        <country name="山阴县" longitude="112.786805" latitude="39.52105" />
        <country name="应县" longitude="113.260593" latitude="39.509316" />
        <country name="右玉县" longitude="112.421677" latitude="40.008136" />
        <country name="怀仁县" longitude="113.112305" latitude="39.793571" />
      </city>
      <city name="晋中市" longitude="112.843737" latitude="37.650825">
        <country name="榆次区" longitude="112.843737" latitude="37.650825" />
        <country name="榆社县" longitude="112.954181" latitude="37.14005" />
        <country name="左权县" longitude="113.474538" latitude="37.032795" />
        <country name="和顺县" longitude="113.474934" latitude="37.348374" />
        <country name="昔阳县" longitude="113.762106" latitude="37.563418" />
        <country name="寿阳县" longitude="113.141611" latitude="37.825119" />
        <country name="太谷县" longitude="112.736433" latitude="37.407696" />
        <country name="祁县" longitude="112.469066" latitude="37.292198" />
        <country name="平遥县" longitude="112.265493" latitude="37.14809" />
        <country name="灵石县" longitude="111.735504" latitude="36.834487" />
        <country name="介休市" longitude="111.995188" latitude="37.025476" />
      </city>
      <city name="运城市" longitude="110.961931" latitude="35.063677">
        <country name="盐湖区" longitude="110.961931" latitude="35.063677" />
        <country name="临猗县" longitude="110.625895" latitude="35.14938" />
        <country name="万荣县" longitude="110.71554" latitude="35.388134" />
        <country name="闻喜县" longitude="111.319287" latitude="35.373753" />
        <country name="稷山县" longitude="110.965122" latitude="35.598267" />
        <country name="新绛县" longitude="111.172875" latitude="35.631583" />
        <country name="绛县" longitude="111.64482" latitude="35.498579" />
        <country name="垣曲县" longitude="111.824787" latitude="35.221584" />
        <country name="夏县" longitude="111.358386" latitude="35.12668" />
        <country name="平陆县" longitude="111.251109" latitude="34.888646" />
        <country name="芮城县" longitude="110.616496" latitude="34.709535" />
        <country name="永济市" longitude="110.488949" latitude="34.894672" />
        <country name="河津市" longitude="110.708539" latitude="35.631891" />
      </city>
      <city name="忻州市" longitude="112.6052" latitude="38.437832">
        <country name="忻府区" longitude="112.6052" latitude="38.437832" />
        <country name="定襄县" longitude="113.035589" latitude="38.51675" />
        <country name="五台县" longitude="113.442104" latitude="38.778174" />
        <country name="代县" longitude="113.050582" latitude="39.093197" />
        <country name="繁峙县" longitude="113.596214" latitude="39.204757" />
        <country name="宁武县" longitude="112.193896" latitude="38.82189" />
        <country name="静乐县" longitude="112.064994" latitude="38.400067" />
        <country name="神池县" longitude="112.00992" latitude="39.173053" />
        <country name="五寨县" longitude="111.744757" latitude="39.008731" />
        <country name="岢岚县" longitude="111.543568" latitude="38.737957" />
        <country name="河曲县" longitude="111.359829" latitude="39.20644" />
        <country name="保德县" longitude="111.142835" latitude="38.887135" />
        <country name="偏关县" longitude="111.671903" latitude="39.464649" />
        <country name="原平市" longitude="112.682128" latitude="38.838876" />
      </city>
      <city name="临汾市" longitude="111.474665" latitude="36.125937">
        <country name="尧都区" longitude="111.474665" latitude="36.125937" />
        <country name="曲沃县" longitude="111.527041" latitude="35.704201" />
        <country name="翼城县" longitude="111.839209" latitude="35.695398" />
        <country name="襄汾县" longitude="111.385953" latitude="35.874204" />
        <country name="洪洞县" longitude="111.659378" latitude="36.325514" />
        <country name="古县" longitude="112.011243" latitude="36.303823" />
        <country name="安泽县" longitude="112.307904" latitude="36.164296" />
        <country name="浮山县" longitude="111.928409" latitude="35.945831" />
        <country name="吉县" longitude="110.728162" latitude="36.158677" />
        <country name="乡宁县" longitude="110.944128" latitude="35.925119" />
        <country name="大宁县" longitude="110.710805" latitude="36.432636" />
        <country name="隰县" longitude="111.009965" latitude="36.711951" />
        <country name="永和县" longitude="110.617898" latitude="36.737137" />
        <country name="蒲县" longitude="111.162359" latitude="36.4246" />
        <country name="汾西县" longitude="111.483148" latitude="36.642781" />
        <country name="侯马市" longitude="111.371509" latitude="35.621785" />
        <country name="霍州市" longitude="111.830836" latitude="36.599678" />
      </city>
      <city name="吕梁市" longitude="111.313142" latitude="37.552339">
        <country name="离石区" longitude="111.313142" latitude="37.552339" />
        <country name="文水县" longitude="111.964995" latitude="37.459706" />
        <country name="交城县" longitude="111.819927" latitude="37.687046" />
        <country name="兴县" longitude="111.069311" latitude="38.392263" />
        <country name="临县" longitude="110.901147" latitude="37.962867" />
        <country name="柳林县" longitude="110.876927" latitude="37.403754" />
        <country name="石楼县" longitude="110.753479" latitude="37.035145" />
        <country name="岚县" longitude="111.606641" latitude="38.343813" />
        <country name="方山县" longitude="111.337979" latitude="37.886688" />
        <country name="中阳县" longitude="111.185904" latitude="37.266318" />
        <country name="交口县" longitude="111.315924" latitude="36.957719" />
        <country name="孝义市" longitude="111.637646" latitude="37.118133" />
        <country name="汾阳市" longitude="111.745996" latitude="37.316764" />
      </city>
    </province>
    <province name="内蒙古自治区" longitude="xxxxx" latitude="xxxxx">
      <city name="呼和浩特市" longitude="111.791327" latitude="40.929361">
        <country name="新城区" longitude="111.791327" latitude="40.929361" />
        <country name="回民区" longitude="111.596886" latitude="40.838895" />
        <country name="玉泉区" longitude="111.658553" latitude="40.747387" />
        <country name="赛罕区" longitude="111.86339" latitude="40.76394" />
        <country name="土默特左旗" longitude="111.234704" latitude="40.689987" />
        <country name="托克托县" longitude="111.3197" latitude="40.361084" />
        <country name="和林格尔县" longitude="111.901693" latitude="40.333868" />
        <country name="清水河县" longitude="111.706236" latitude="39.889118" />
        <country name="武川县" longitude="111.179572" latitude="41.116204" />
      </city>
      <city name="包头市" longitude="110.02007" latitude="40.58629">
        <country name="东河区" longitude="110.02007" latitude="40.58629" />
        <country name="昆都仑区" longitude="109.76946" latitude="40.65211" />
        <country name="青山区" longitude="109.903675" latitude="40.658778" />
        <country name="石拐区" longitude="110.29371" latitude="40.7124" />
        <country name="白云咢博矿区" longitude="109.92965" latitude="41.75699" />
        <country name="九原区" longitude="110.051" latitude="40.68623" />
        <country name="土默特右旗" longitude="110.693258" latitude="40.527996" />
        <country name="固阳县" longitude="110.167592" latitude="41.104725" />
        <country name="达尔罕茂明安联合旗" longitude="110.286189" latitude="41.943507" />
      </city>
      <city name="乌海市" longitude="106.861482" latitude="39.734834">
        <country name="海勃湾区" longitude="106.861482" latitude="39.734834" />
        <country name="海南区" longitude="106.925397" latitude="39.296209" />
        <country name="乌达区" longitude="106.725859" latitude="39.535878" />
      </city>
      <city name="赤峰市" longitude="118.998103" latitude="42.286232">
        <country name="红山区" longitude="118.998103" latitude="42.286232" />
        <country name="元宝山区" longitude="119.268169" latitude="42.184131" />
        <country name="松山区" longitude="118.757106" latitude="42.268753" />
        <country name="阿鲁科尔沁旗" longitude="120.053241" latitude="44.195957" />
        <country name="巴林左旗" longitude="119.280766" latitude="44.203431" />
        <country name="巴林右旗" longitude="118.94609" latitude="43.684787" />
        <country name="林西县" longitude="118.110216" latitude="43.771462" />
        <country name="克什克腾旗" longitude="117.35857" latitude="43.218237" />
        <country name="翁牛特旗" longitude="119.254643" latitude="42.97398" />
        <country name="喀喇沁旗" longitude="118.667056" latitude="41.908351" />
        <country name="宁城县" longitude="118.905499" latitude="41.571041" />
        <country name="敖汉旗" longitude="120.157713" latitude="42.430592" />
      </city>
      <city name="通辽市" longitude="122.291294" latitude="43.65829">
        <country name="科尔沁区" longitude="122.291294" latitude="43.65829" />
        <country name="科尔沁左翼中旗" longitude="122.49918" latitude="44.057579" />
        <country name="科尔沁左翼后旗" longitude="122.697345" latitude="43.196083" />
        <country name="开鲁县" longitude="121.324094" latitude="43.734942" />
        <country name="库伦旗" longitude="121.573038" latitude="42.810038" />
        <country name="奈曼旗" longitude="120.940789" latitude="42.972383" />
        <country name="扎鲁特旗" longitude="120.596028" latitude="44.822451" />
        <country name="霍林郭勒市" longitude="119.579748" latitude="45.528106" />
      </city>
      <city name="鄂尔多斯市" longitude="109.764419" latitude="39.805586">
        <country name="东胜区" longitude="109.764419" latitude="39.805586" />
        <country name="达拉特旗" longitude="109.866191" latitude="40.220264" />
        <country name="准格尔旗" longitude="110.886239" latitude="39.794725" />
        <country name="鄂托克前旗" longitude="107.59701" latitude="38.275938" />
        <country name="鄂托克旗" longitude="107.75202" latitude="39.286297" />
        <country name="杭锦旗" longitude="108.212828" latitude="40.212873" />
        <country name="乌审旗" longitude="108.889663" latitude="38.640475" />
        <country name="伊金霍洛旗" longitude="109.704186" latitude="39.420696" />
      </city>
      <city name="呼伦贝尔市" longitude="120.042882" latitude="49.279245">
        <country name="海拉尔区" longitude="120.042882" latitude="49.279245" />
        <country name="阿荣旗" longitude="123.171954" latitude="48.639989" />
        <country name="莫力达瓦达斡尔族自治旗" longitude="124.474434" latitude="49.104887" />
        <country name="鄂伦春自治旗" longitude="123.817278" latitude="50.348755" />
        <country name="鄂温克族自治旗" longitude="120.067483" latitude="48.499137" />
        <country name="陈巴尔虎旗" longitude="119.535208" latitude="49.605281" />
        <country name="新巴尔虎左旗" longitude="118.621525" latitude="48.436392" />
        <country name="新巴尔虎右旗" longitude="116.802184" latitude="48.644979" />
        <country name="满洲里市" longitude="117.603687" latitude="49.500032" />
        <country name="牙克石市" longitude="121.512668" latitude="49.329996" />
        <country name="扎兰屯市" longitude="121.929202" latitude="47.743403" />
        <country name="额尔古纳市" longitude="120.652764" latitude="51.660819" />
        <country name="根河市" longitude="121.797713" latitude="51.375925" />
      </city>
      <city name="巴彦淖尔市" longitude="98.208045" latitude="39.821463">
        <country name="市辖区" longitude="98.208045" latitude="39.821463" />
        <country name="临河区" longitude="107.44184" latitude="40.932018" />
        <country name="五原县" longitude="107.423198" latitude="40.764138" />
        <country name="磴口县" longitude="107.423198" latitude="40.764138" />
        <country name="乌拉特前旗" longitude="107.423198" latitude="40.764138" />
        <country name="乌拉特中旗" longitude="107.423198" latitude="40.764138" />
        <country name="乌拉特后旗" longitude="107.423198" latitude="40.764138" />
        <country name="杭锦后旗" longitude="107.423198" latitude="40.764138" />
      </city>
      <city name="乌兰察布市" longitude="98.208045" latitude="39.821463">
        <country name="市辖区" longitude="98.208045" latitude="39.821463" />
        <country name="集宁区" longitude="113.112832" latitude="41.027766" />
        <country name="卓资县" longitude="113.124232" latitude="41.039311" />
        <country name="化德县" longitude="113.124232" latitude="41.039311" />
        <country name="商都县" longitude="113.124232" latitude="41.039311" />
        <country name="兴和县" longitude="113.124232" latitude="41.039311" />
        <country name="凉城县" longitude="113.124232" latitude="41.039311" />
        <country name="察哈尔右翼前旗" longitude="113.124232" latitude="41.039311" />
        <country name="察哈尔右翼中旗" longitude="113.124232" latitude="41.039311" />
        <country name="察哈尔右翼后旗" longitude="113.124232" latitude="41.039311" />
        <country name="四子王旗" longitude="113.124232" latitude="41.039311" />
        <country name="丰镇市" longitude="113.124232" latitude="41.039311" />
      </city>
      <city name="兴安盟" longitude="122.081534" latitude="46.116944">
        <country name="乌兰浩特市" longitude="122.081534" latitude="46.116944" />
        <country name="阿尔山市" longitude="120.357534" latitude="47.163696" />
        <country name="科尔沁右翼前旗" longitude="121.221524" latitude="46.334025" />
        <country name="科尔沁右翼中旗" longitude="121.19851" latitude="45.242069" />
        <country name="扎赉特旗" longitude="122.388146" latitude="46.790808" />
        <country name="突泉县" longitude="121.519212" latitude="45.632866" />
      </city>
      <city name="锡林郭勒盟" longitude="111.966178" latitude="43.41778">
        <country name="二连浩特市" longitude="111.966178" latitude="43.41778" />
        <country name="锡林浩特市" longitude="116.136948" latitude="44.078961" />
        <country name="阿巴嘎旗" longitude="114.893471" latitude="44.276507" />
        <country name="苏尼特左旗" longitude="113.140307" latitude="44.039238" />
        <country name="苏尼特右旗" longitude="112.9116" latitude="42.900964" />
        <country name="东乌珠穆沁旗" longitude="117.81045" latitude="45.826665" />
        <country name="西乌珠穆沁旗" longitude="117.816963" latitude="44.715903" />
        <country name="太仆寺旗" longitude="115.304558" latitude="41.906216" />
        <country name="镶黄旗" longitude="114.120589" latitude="42.368276" />
        <country name="正镶白旗" longitude="115.024347" latitude="42.554843" />
        <country name="正蓝旗" longitude="115.94011" latitude="42.674414" />
        <country name="多伦县" longitude="116.498639" latitude="42.196601" />
      </city>
      <city name="阿拉善盟" longitude="105.038247" latitude="39.547806">
        <country name="阿拉善左旗" longitude="105.038247" latitude="39.547806" />
        <country name="阿拉善右旗" longitude="102.443856" latitude="40.186229" />
        <country name="额济纳旗" longitude="100.099512" latitude="41.6938" />
      </city>
    </province>
  </Area>
  <Area name="东北">
    <province name="辽宁省" longitude="xxxxx" latitude="xxxxx">
      <city name="沈阳市" longitude="123.414332" latitude="41.786474">
        <country name="和平区" longitude="123.414332" latitude="41.786474" />
        <country name="沈河区" longitude="123.453552" latitude="41.798305" />
        <country name="大东区" longitude="123.498927" latitude="41.835279" />
        <country name="皇姑区" longitude="123.415376" latitude="41.848913" />
        <country name="铁西区" longitude="123.35863" latitude="41.805724" />
        <country name="苏家屯区" longitude="123.426289" latitude="41.589345" />
        <country name="东陵区" longitude="123.599872" latitude="41.765562" />
        <country name="新城子区" longitude="123.52" latitude="42.05" />
        <country name="于洪区" longitude="123.242847" latitude="41.843551" />
        <country name="辽中县" longitude="122.778872" latitude="41.56686" />
        <country name="康平县" longitude="123.273598" latitude="42.765541" />
        <country name="法库县" longitude="123.248897" latitude="42.415298" />
        <country name="新民市" longitude="122.866418" latitude="42.016776" />
      </city>
      <city name="大连市" longitude="121.677966" latitude="38.900436">
        <country name="中山区" longitude="121.677966" latitude="38.900436" />
        <country name="西岗区" longitude="121.625823" latitude="38.91337" />
        <country name="沙河口区" longitude="121.582618" latitude="38.921778" />
        <country name="甘井子区" longitude="121.5285" latitude="38.955462" />
        <country name="旅顺口区" longitude="121.295936" latitude="38.908291" />
        <country name="金州区" longitude="121.956582" latitude="39.298619" />
        <country name="长海县" longitude="122.748265" latitude="39.260109" />
        <country name="瓦房店市" longitude="121.790699" latitude="39.708956" />
        <country name="普兰店市" longitude="122.274257" latitude="39.620006" />
        <country name="庄河市" longitude="122.934145" latitude="39.85891" />
      </city>
      <city name="鞍山市" longitude="123.020706" latitude="41.118235">
        <country name="铁东区" longitude="123.020706" latitude="41.118235" />
        <country name="铁西区" longitude="122.985786" latitude="41.127872" />
        <country name="立山区" longitude="123.040474" latitude="41.164173" />
        <country name="千山区" longitude="123.014005" latitude="41.061329" />
        <country name="台安县" longitude="122.443683" latitude="41.3471" />
        <country name="岫岩满族自治县" longitude="123.346069" latitude="40.403181" />
        <country name="海城市" longitude="122.791201" latitude="40.840354" />
      </city>
      <city name="抚顺市" longitude="123.911369" latitude="41.86979">
        <country name="新抚区" longitude="123.911369" latitude="41.86979" />
        <country name="东洲区" longitude="124.029249" latitude="41.833588" />
        <country name="望花区" longitude="123.785996" latitude="41.860404" />
        <country name="顺城区" longitude="123.901724" latitude="41.916014" />
        <country name="抚顺县" longitude="124.136589" latitude="41.750077" />
        <country name="新宾满族自治县" longitude="124.827866" latitude="41.635119" />
        <country name="清原满族自治县" longitude="124.924317" latitude="42.118882" />
      </city>
      <city name="本溪市" longitude="123.692575" latitude="41.240401">
        <country name="平山区" longitude="123.692575" latitude="41.240401" />
        <country name="溪湖区" longitude="123.711866" latitude="41.456154" />
        <country name="明山区" longitude="123.901737" latitude="41.347752" />
        <country name="南芬区" longitude="123.82788" latitude="41.122716" />
        <country name="本溪满族自治县" longitude="124.158564" latitude="41.19567" />
        <country name="桓仁满族自治县" longitude="125.290028" latitude="41.261816" />
      </city>
      <city name="丹东市" longitude="124.350321" latitude="40.173197">
        <country name="元宝区" longitude="124.350321" latitude="40.173197" />
        <country name="振兴区" longitude="124.355563" latitude="40.067035" />
        <country name="振安区" longitude="124.292197" latitude="40.211547" />
        <country name="宽甸满族自治县" longitude="124.934106" latitude="40.766142" />
        <country name="东港市" longitude="123.87687" latitude="39.981217" />
        <country name="凤城市" longitude="124.07296" latitude="40.57957" />
      </city>
      <city name="锦州市" longitude="121.126434" latitude="41.141388">
        <country name="古塔区" longitude="121.126434" latitude="41.141388" />
        <country name="凌河区" longitude="121.182665" latitude="41.13438" />
        <country name="太和区" longitude="121.118645" latitude="41.13683" />
        <country name="黑山县" longitude="122.260736" latitude="41.799698" />
        <country name="义县" longitude="121.301877" latitude="41.534928" />
        <country name="凌海市" longitude="121.285575" latitude="41.152566" />
        <country name="北宁市" longitude="121.147749" latitude="41.130879" />
      </city>
      <city name="营口市" longitude="122.265592" latitude="40.70301">
        <country name="站前区" longitude="122.265592" latitude="40.70301" />
        <country name="西市区" longitude="122.210126" latitude="40.666949" />
        <country name="鲅鱼圈区" longitude="122.176897" latitude="40.252584" />
        <country name="老边区" longitude="122.330903" latitude="40.672565" />
        <country name="盖州市" longitude="122.477327" latitude="40.235441" />
        <country name="大石桥市" longitude="122.571551" latitude="40.646915" />
      </city>
      <city name="阜新市" longitude="121.652705" latitude="41.990902">
        <country name="海州区" longitude="121.652705" latitude="41.990902" />
        <country name="新邱区" longitude="121.824321" latitude="42.074628" />
        <country name="太平区" longitude="121.737753" latitude="42.009452" />
        <country name="清河门区" longitude="121.446839" latitude="41.754998" />
        <country name="细河区" longitude="121.627557" latitude="42.043254" />
        <country name="阜新蒙古族自治县" longitude="121.695578" latitude="42.1575" />
        <country name="彰武县" longitude="122.474173" latitude="42.523754" />
      </city>
      <city name="辽阳市" longitude="123.175163" latitude="41.279286">
        <country name="白塔区" longitude="123.175163" latitude="41.279286" />
        <country name="文圣区" longitude="123.201216" latitude="41.271122" />
        <country name="宏伟区" longitude="123.220518" latitude="41.220764" />
        <country name="弓长岭区" longitude="123.42628" latitude="41.14597" />
        <country name="太子河区" longitude="123.178374" latitude="41.274593" />
        <country name="辽阳县" longitude="123.219821" latitude="41.077281" />
        <country name="灯塔市" longitude="123.312574" latitude="41.420099" />
      </city>
      <city name="盘锦市" longitude="122.032038" latitude="41.193225">
        <country name="双台子区" longitude="122.032038" latitude="41.193225" />
        <country name="兴隆台区" longitude="121.969629" latitude="41.155831" />
        <country name="大洼县" longitude="122.093755" latitude="40.964908" />
        <country name="盘山县" longitude="121.952166" latitude="41.193475" />
      </city>
      <city name="铁岭市" longitude="123.858516" latitude="42.248295">
        <country name="银州区" longitude="123.858516" latitude="42.248295" />
        <country name="清河区" longitude="124.27578" latitude="42.508557" />
        <country name="铁岭县" longitude="123.914529" latitude="42.222765" />
        <country name="西丰县" longitude="124.738502" latitude="42.712739" />
        <country name="昌图县" longitude="123.946409" latitude="43.000462" />
        <country name="调兵山市" longitude="123.584348" latitude="42.44293" />
        <country name="开原市" longitude="124.283776" latitude="42.471223" />
      </city>
      <city name="朝阳市" longitude="120.484073" latitude="41.60574">
        <country name="双塔区" longitude="120.484073" latitude="41.60574" />
        <country name="龙城区" longitude="120.401333" latitude="41.606227" />
        <country name="朝阳县" longitude="120.305061" latitude="41.372796" />
        <country name="建平县" longitude="119.632527" latitude="41.842223" />
        <country name="喀喇沁左翼蒙古族自治县" longitude="119.775534" latitude="41.143624" />
        <country name="北票市" longitude="120.811885" latitude="41.865071" />
        <country name="凌源市" longitude="119.271543" latitude="40.981801" />
      </city>
      <city name="葫芦岛市" longitude="120.688361" latitude="40.888537">
        <country name="连山区" longitude="120.688361" latitude="40.888537" />
        <country name="龙港区" longitude="120.904586" latitude="40.750993" />
        <country name="南票区" longitude="120.664645" latitude="41.137036" />
        <country name="绥中县" longitude="120.026302" latitude="40.305129" />
        <country name="建昌县" longitude="119.834892" latitude="40.716828" />
        <country name="兴城市" longitude="120.475527" latitude="40.596284" />
      </city>
    </province>
    <province name="吉林省" longitude="xxxxx" latitude="xxxxx">
      <city name="长春市" longitude="125.419649" latitude="43.732191">
        <country name="南关区" longitude="125.419649" latitude="43.732191" />
        <country name="宽城区" longitude="125.344899" latitude="43.998252" />
        <country name="朝阳区" longitude="125.278226" latitude="43.689109" />
        <country name="二道区" longitude="125.611485" latitude="43.872223" />
        <country name="绿园区" longitude="125.191331" latitude="43.912165" />
        <country name="双阳区" longitude="125.712822" latitude="43.531747" />
        <country name="农安县" longitude="125.094327" latitude="44.461506" />
        <country name="九台市" longitude="125.985176" latitude="44.209759" />
        <country name="榆树市" longitude="126.602501" latitude="44.879423" />
        <country name="德惠市" longitude="125.769044" latitude="44.510507" />
      </city>
      <city name="吉林市" longitude="126.326513" latitude="44.023898">
        <country name="昌邑区" longitude="126.326513" latitude="44.023898" />
        <country name="龙潭区" longitude="126.695085" latitude="44.100874" />
        <country name="船营区" longitude="126.389089" latitude="43.882172" />
        <country name="丰满区" longitude="126.698202" latitude="43.654515" />
        <country name="永吉县" longitude="126.22756" latitude="43.601481" />
        <country name="蛟河市" longitude="127.351742" latitude="43.716756" />
        <country name="桦甸市" longitude="127.041392" latitude="43.056631" />
        <country name="舒兰市" longitude="127.116772" latitude="44.335465" />
        <country name="磐石市" longitude="126.174628" latitude="43.057456" />
      </city>
      <city name="四平市" longitude="124.355392" latitude="43.21416">
        <country name="铁西区" longitude="124.355392" latitude="43.21416" />
        <country name="铁东区" longitude="124.459899" latitude="43.101529" />
        <country name="梨树县" longitude="124.380491" latitude="43.414438" />
        <country name="伊通满族自治县" longitude="125.271149" latitude="43.346322" />
        <country name="公主岭市" longitude="124.685882" latitude="43.791826" />
        <country name="双辽市" longitude="123.70852" latitude="43.767695" />
      </city>
      <city name="辽源市" longitude="125.210998" latitude="42.913197">
        <country name="龙山区" longitude="125.210998" latitude="42.913197" />
        <country name="西安区" longitude="125.150149" latitude="42.986365" />
        <country name="东丰县" longitude="125.454809" latitude="42.683934" />
        <country name="东辽县" longitude="125.184931" latitude="42.947925" />
      </city>
      <city name="通化市" longitude="125.960124" latitude="41.677262">
        <country name="东昌区" longitude="125.960124" latitude="41.677262" />
        <country name="二道江区" longitude="126.15628" latitude="41.772626" />
        <country name="通化县" longitude="125.857332" latitude="41.729156" />
        <country name="辉南县" longitude="126.342724" latitude="42.557949" />
        <country name="柳河县" longitude="125.917276" latitude="42.185665" />
        <country name="梅河口市" longitude="125.723516" latitude="42.54265" />
        <country name="集安市" longitude="125.998992" latitude="41.251411" />
      </city>
      <city name="白山市" longitude="126.4" latitude="41.93">
        <country name="八道江区" longitude="126.4" latitude="41.93" />
        <country name="抚松县" longitude="127.623938" latitude="42.277909" />
        <country name="靖宇县" longitude="126.902469" latitude="42.449967" />
        <country name="长白朝鲜族自治县" longitude="127.864358" latitude="41.584709" />
        <country name="江源县" longitude="126.825302" latitude="42.078959" />
        <country name="临江市" longitude="127.19171" latitude="41.816566" />
      </city>
      <city name="松原市" longitude="124.867571" latitude="45.29271">
        <country name="宁江区" longitude="124.867571" latitude="45.29271" />
        <country name="前郭尔罗斯蒙古族自治县" longitude="124.48165" latitude="44.869127" />
        <country name="长岭县" longitude="123.866504" latitude="44.305645" />
        <country name="乾安县" longitude="123.969123" latitude="44.926914" />
        <country name="扶余县" longitude="125.564563" latitude="45.131092" />
      </city>
      <city name="白城市" longitude="122.789074" latitude="45.623301">
        <country name="洮北区" longitude="122.789074" latitude="45.623301" />
        <country name="镇赉县" longitude="123.452272" latitude="45.956172" />
        <country name="通榆县" longitude="122.745291" latitude="44.785717" />
        <country name="洮南市" longitude="122.453677" latitude="45.475604" />
        <country name="大安市" longitude="123.723714" latitude="45.432438" />
      </city>
      <city name="延边朝鲜族自治州" longitude="129.471302" latitude="43.059667">
        <country name="延吉市" longitude="129.471302" latitude="43.059667" />
        <country name="图们市" longitude="129.834311" latitude="43.030549" />
        <country name="敦化市" longitude="128.239499" latitude="43.560202" />
        <country name="珲春市" longitude="130.702367" latitude="43.074719" />
        <country name="龙井市" longitude="129.383816" latitude="42.844249" />
        <country name="和龙市" longitude="128.911211" latitude="42.466442" />
        <country name="汪清县" longitude="129.953994" latitude="43.540144" />
        <country name="安图县" longitude="128.437652" latitude="42.701033" />
      </city>
    </province>
    <province name="黑龙江省" longitude="xxxxx" latitude="xxxxx">
      <city name="哈尔滨市" longitude="126.657717" latitude="45.773225">
        <country name="道里区" longitude="126.39444" latitude="45.67625" />
        <country name="南岗区" longitude="127.53959" latitude="45.63104" />
        <country name="道外区" longitude="126.80846" latitude="45.86898" />
        <country name="香坊区" longitude="126.90364" latitude="45.78094" />
        <country name="动力区" longitude="126.67997" latitude="45.70242" />
        <country name="平房区" longitude="126.64904" latitude="45.6001" />
        <country name="松北区" longitude="126.38968" latitude="45.94513" />
        <country name="呼兰区" longitude="126.79657" latitude="45.16642" />
        <country name="依兰县" longitude="129.721503" latitude="46.275637" />
        <country name="方正县" longitude="128.949419" latitude="45.819769" />
        <country name="宾县" longitude="127.661612" latitude="45.783825" />
        <country name="巴彦县" longitude="127.324287" latitude="46.340416" />
        <country name="木兰县" longitude="127.929838" latitude="46.248172" />
        <country name="通河县" longitude="128.762232" latitude="46.247857" />
        <country name="延寿县" longitude="128.463943" latitude="45.48952" />
        <country name="阿城市" longitude="126.657717" latitude="45.773225" />
        <country name="双城市" longitude="126.188927" latitude="45.408171" />
        <country name="尚志市" longitude="128.31617" latitude="45.083893" />
        <country name="五常市" longitude="127.491113" latitude="44.772544" />
      </city>
      <city name="齐齐哈尔市" longitude="123.944838" latitude="47.301073">
        <country name="龙沙区" longitude="123.944838" latitude="47.301073" />
        <country name="建华区" longitude="124.021279" latitude="47.404866" />
        <country name="铁锋区" longitude="124.262931" latitude="47.303489" />
        <country name="昂昂溪区" longitude="123.972935" latitude="47.104048" />
        <country name="富拉尔基区" longitude="123.571998" latitude="47.228952" />
        <country name="碾子山区" longitude="122.932335" latitude="47.585869" />
        <country name="梅里斯达斡尔族区" longitude="123.77828" latitude="47.58308" />
        <country name="龙江县" longitude="123.089103" latitude="47.258895" />
        <country name="依安县" longitude="125.294633" latitude="47.706873" />
        <country name="泰来县" longitude="123.558048" latitude="46.60329" />
        <country name="甘南县" longitude="123.8469" latitude="48.011583" />
        <country name="富裕县" longitude="124.571747" latitude="47.66582" />
        <country name="克山县" longitude="125.706471" latitude="48.167091" />
        <country name="克东县" longitude="126.352136" latitude="48.009015" />
        <country name="拜泉县" longitude="126.021786" latitude="47.592256" />
        <country name="讷河市" longitude="125.076553" latitude="48.481453" />
      </city>
      <city name="鸡西市" longitude="130.959937" latitude="45.30761">
        <country name="鸡冠区" longitude="130.959937" latitude="45.30761" />
        <country name="恒山区" longitude="130.916267" latitude="45.138571" />
        <country name="滴道区" longitude="130.734836" latitude="45.354342" />
        <country name="梨树区" longitude="130.765238" latitude="45.097064" />
        <country name="城子河区" longitude="131.027704" latitude="45.37969" />
        <country name="麻山区" longitude="130.566887" latitude="45.205826" />
        <country name="鸡东县" longitude="131.225654" latitude="45.273228" />
        <country name="虎林市" longitude="133.121106" latitude="45.997276" />
        <country name="密山市" longitude="132.176562" latitude="45.469765" />
      </city>
      <city name="鹤岗市" longitude="130.301233" latitude="47.35092">
        <country name="向阳区" longitude="130.301233" latitude="47.35092" />
        <country name="工农区" longitude="130.277196" latitude="47.32777" />
        <country name="南山区" longitude="130.281765" latitude="47.298821" />
        <country name="兴安区" longitude="130.244375" latitude="47.23371" />
        <country name="东山区" longitude="130.247501" latitude="47.483737" />
        <country name="兴山区" longitude="130.326646" latitude="47.393965" />
        <country name="萝北县" longitude="130.761333" latitude="47.746935" />
        <country name="绥滨县" longitude="131.856595" latitude="47.483007" />
      </city>
      <city name="双鸭山市" longitude="131.178514" latitude="46.658525">
        <country name="尖山区" longitude="131.178514" latitude="46.658525" />
        <country name="岭东区" longitude="131.246024" latitude="46.459522" />
        <country name="四方台区" longitude="131.308707" latitude="46.669775" />
        <country name="宝山区" longitude="131.564836" latitude="46.529228" />
        <country name="集贤县" longitude="131.150556" latitude="46.818437" />
        <country name="友谊县" longitude="131.854999" latitude="46.788593" />
        <country name="宝清县" longitude="132.409279" latitude="46.409383" />
        <country name="饶河县" longitude="133.729259" latitude="47.072629" />
      </city>
      <city name="大庆市" longitude="125.042452" latitude="46.663311">
        <country name="萨尔图区" longitude="125.042452" latitude="46.663311" />
        <country name="龙凤区" longitude="125.141767" latitude="46.535568" />
        <country name="让胡路区" longitude="124.838427" latitude="46.72916" />
        <country name="红岗区" longitude="124.914285" latitude="46.420779" />
        <country name="大同区" longitude="124.699077" latitude="46.070051" />
        <country name="肇州县" longitude="125.308969" latitude="45.837072" />
        <country name="肇源县" longitude="124.769044" latitude="45.6472" />
        <country name="林甸县" longitude="124.896783" latitude="47.159693" />
        <country name="杜尔伯特蒙古族自治县" longitude="124.246513" latitude="46.561614" />
      </city>
      <city name="伊春市" longitude="128.90058" latitude="47.741959">
        <country name="伊春区" longitude="128.90058" latitude="47.741959" />
        <country name="南岔区" longitude="129.538874" latitude="46.964156" />
        <country name="友好区" longitude="128.465964" latitude="48.128002" />
        <country name="西林区" longitude="129.227255" latitude="47.500962" />
        <country name="翠峦区" longitude="128.365411" latitude="47.589934" />
        <country name="新青区" longitude="129.787357" latitude="48.216126" />
        <country name="美溪区" longitude="129.409404" latitude="47.768892" />
        <country name="金山屯区" longitude="129.771903" latitude="47.498544" />
        <country name="五营区" longitude="129.061485" latitude="48.229328" />
        <country name="乌马河区" longitude="128.79469" latitude="47.549368" />
        <country name="汤旺河区" longitude="129.538754" latitude="48.563263" />
        <country name="带岭区" longitude="128.861475" latitude="47.090162" />
        <country name="乌伊岭区" longitude="129.498936" latitude="48.836655" />
        <country name="红星区" longitude="129.251919" latitude="48.29802" />
        <country name="上甘岭区" longitude="129.022399" latitude="48.036509" />
        <country name="嘉荫县" longitude="130.00825" latitude="48.76952" />
        <country name="铁力市" longitude="128.552517" latitude="46.866329" />
      </city>
      <city name="佳木斯市" longitude="130.288998" latitude="46.778227">
        <country name="市辖区" longitude="130.288998" latitude="46.778227" />
        <country name="永红区" longitude="130.357862" latitude="46.817871" />
        <country name="向阳区" longitude="130.301233" latitude="47.35092" />
        <country name="前进区" longitude="132.27643" latitude="46.461695" />
        <country name="东风区" longitude="130.31621" latitude="46.79567" />
        <country name="佳木斯市区" longitude="130.284735" latitude="46.81378" />
        <country name="桦南县" longitude="130.637015" latitude="46.306672" />
        <country name="桦川县" longitude="130.963018" latitude="46.989258" />
        <country name="汤原县" longitude="130.072406" latitude="46.988319" />
        <country name="抚远县" longitude="134.296044" latitude="47.926105" />
        <country name="同江市" longitude="133.273328" latitude="47.833685" />
        <country name="富锦市" longitude="132.539001" latitude="47.170673" />
      </city>
      <city name="七台河市" longitude="130.893188" latitude="45.813494">
        <country name="新兴区" longitude="130.893188" latitude="45.813494" />
        <country name="桃山区" longitude="130.992503" latitude="45.770093" />
        <country name="茄子河区" longitude="131.475224" latitude="45.883168" />
        <country name="勃利县" longitude="130.818169" latitude="45.930545" />
      </city>
      <city name="牡丹江市" longitude="129.860447" latitude="44.408404">
        <country name="东安区" longitude="129.860447" latitude="44.408404" />
        <country name="阳明区" longitude="129.783915" latitude="44.587975" />
        <country name="爱民区" longitude="129.544566" latitude="44.685921" />
        <country name="西安区" longitude="129.584924" latitude="44.491714" />
        <country name="东宁县" longitude="130.850389" latitude="44.032436" />
        <country name="林口县" longitude="130.023181" latitude="45.396102" />
        <country name="绥芬河市" longitude="131.102457" latitude="44.408005" />
        <country name="海林市" longitude="129.221414" latitude="44.903617" />
        <country name="宁安市" longitude="129.215317" latitude="44.058017" />
        <country name="穆棱市" longitude="130.395526" latitude="44.57687" />
      </city>
      <city name="黑河市" longitude="126.764262" latitude="50.218245">
        <country name="爱辉区" longitude="126.764262" latitude="50.218245" />
        <country name="嫩江县" longitude="125.771275" latitude="49.621866" />
        <country name="逊克县" longitude="128.370877" latitude="48.88674" />
        <country name="孙吴县" longitude="127.316672" latitude="49.370656" />
        <country name="北安市" longitude="127.111546" latitude="48.115946" />
        <country name="五大连池市" longitude="126.634501" latitude="48.749166" />
      </city>
      <city name="绥化市" longitude="126.957863" latitude="46.747537">
        <country name="北林区" longitude="126.957863" latitude="46.747537" />
        <country name="望奎县" longitude="126.593023" latitude="46.869481" />
        <country name="兰西县" longitude="126.213543" latitude="46.35835" />
        <country name="青冈县" longitude="125.960524" latitude="46.846561" />
        <country name="庆安县" longitude="127.84449" latitude="47.070366" />
        <country name="明水县" longitude="125.841268" latitude="47.201247" />
        <country name="绥棱县" longitude="127.719413" latitude="47.584143" />
        <country name="安达市" longitude="125.384552" latitude="46.535467" />
        <country name="肇东市" longitude="125.849731" latitude="46.009306" />
        <country name="海伦市" longitude="126.897129" latitude="47.44727" />
      </city>
      <city name="大兴安岭地区" longitude="124.912002" latitude="51.81313">
        <country name="呼玛县" longitude="124.912002" latitude="51.81313" />
        <country name="塔河县" longitude="124.640203" latitude="52.716506" />
        <country name="漠河县" longitude="122.715721" latitude="52.945659" />
      </city>
    </province>
  </Area>
  <Area name="华东">
    <province name="上海市" longitude="xxxxx" latitude="xxxxx">
      <city name="上海辖区" longitude="121.496072" latitude="31.227203">
        <country name="黄浦区" longitude="121.496072" latitude="31.227203" />
        <country name="卢湾区" longitude="121.481238" latitude="31.213348" />
        <country name="徐汇区" longitude="121.446235" latitude="31.169152" />
        <country name="长宁区" longitude="121.387616" latitude="31.213301" />
        <country name="静安区" longitude="121.454756" latitude="31.235381" />
        <country name="普陀区" longitude="121.398443" latitude="31.263743" />
        <country name="闸北区" longitude="121.457769" latitude="31.288044" />
        <country name="虹口区" longitude="121.491919" latitude="31.282497" />
        <country name="杨浦区" longitude="121.535717" latitude="31.30451" />
        <country name="闵行区" longitude="121.425024" latitude="31.093538" />
        <country name="宝山区" longitude="121.409041" latitude="31.398623" />
        <country name="嘉定区" longitude="121.251014" latitude="31.364338" />
        <country name="浦东新区" longitude="121.638481" latitude="31.230895" />
        <country name="金山区" longitude="121.248408" latitude="30.835081" />
        <country name="松江区" longitude="121.226791" latitude="31.021245" />
        <country name="青浦区" longitude="121.091425" latitude="31.130862" />
        <country name="南汇区" longitude="121.51491" latitude="31.20822" />
        <country name="奉贤区" longitude="121.560642" latitude="30.915122" />
      </city>
      <city name="上海辖县" longitude="121.535398" latitude="31.633565">
        <country name="崇明县" longitude="121.535398" latitude="31.633565" />
      </city>
    </province>
    <province name="江苏省" longitude="xxxxx" latitude="xxxxx">
      <city name="南京市" longitude="118.848937" latitude="32.071766">
        <country name="玄武区" longitude="118.848937" latitude="32.071766" />
        <country name="白下区" longitude="118.829884" latitude="32.030369" />
        <country name="秦淮区" longitude="118.817221" latitude="32.007969" />
        <country name="建邺区" longitude="118.713342" latitude="32.012518" />
        <country name="鼓楼区" longitude="118.765057" latitude="32.068604" />
        <country name="下关区" longitude="118.772553" latitude="32.109229" />
        <country name="浦口区" longitude="118.569125" latitude="32.059062" />
        <country name="栖霞区" longitude="118.963725" latitude="32.169424" />
        <country name="雨花台区" longitude="118.721979" latitude="31.954552" />
        <country name="江宁区" longitude="118.835418" latitude="31.863971" />
        <country name="六合区" longitude="118.848166" latitude="32.40064" />
        <country name="溧水县" longitude="119.039927" latitude="31.596963" />
        <country name="高淳县" longitude="118.9719" latitude="31.336381" />
      </city>
      <city name="无锡市" longitude="120.328903" latitude="31.597341">
        <country name="崇安区" longitude="120.328903" latitude="31.597341" />
        <country name="南长区" longitude="120.315798" latitude="31.542866" />
        <country name="北塘区" longitude="120.282126" latitude="31.609369" />
        <country name="锡山区" longitude="120.491008" latitude="31.615587" />
        <country name="惠山区" longitude="120.215294" latitude="31.656376" />
        <country name="滨湖区" longitude="120.19466" latitude="31.44163" />
        <country name="江阴市" longitude="120.310679" latitude="31.837425" />
        <country name="宜兴市" longitude="119.790265" latitude="31.362245" />
      </city>
      <city name="徐州市" longitude="117.296129" latitude="34.30141">
        <country name="鼓楼区" longitude="117.296129" latitude="34.30141" />
        <country name="云龙区" longitude="117.276176" latitude="34.222487" />
        <country name="九里区" longitude="117.124522" latitude="34.321211" />
        <country name="贾汪区" longitude="117.498246" latitude="34.410528" />
        <country name="泉山区" longitude="117.175584" latitude="34.241947" />
        <country name="丰县" longitude="116.615733" latitude="34.695773" />
        <country name="沛县" longitude="116.911468" latitude="34.700648" />
        <country name="铜山县" longitude="117.295376" latitude="34.288409" />
        <country name="睢宁县" longitude="117.890364" latitude="33.946571" />
        <country name="新沂市" longitude="118.344121" latitude="34.284443" />
        <country name="邳州市" longitude="117.90306" latitude="34.402946" />
      </city>
      <city name="常州市" longitude="120.001766" latitude="31.777803">
        <country name="天宁区" longitude="120.001766" latitude="31.777803" />
        <country name="钟楼区" longitude="119.912439" latitude="31.798511" />
        <country name="戚墅堰区" longitude="120.056359" latitude="31.756898" />
        <country name="新北区" longitude="119.89247" latitude="31.96512" />
        <country name="武进区" longitude="119.943432" latitude="31.672903" />
        <country name="溧阳市" longitude="119.382839" latitude="31.425242" />
        <country name="金坛市" longitude="119.515038" latitude="31.723054" />
      </city>
      <city name="苏州市" longitude="120.616793" latitude="31.295727">
        <country name="沧浪区" longitude="120.616793" latitude="31.295727" />
        <country name="平江区" longitude="120.630878" latitude="31.332306" />
        <country name="金阊区" longitude="120.581625" latitude="31.344528" />
        <country name="虎丘区" longitude="120.478424" latitude="31.351869" />
        <country name="吴中区" longitude="120.365776" latitude="31.17987" />
        <country name="相城区" longitude="120.646853" latitude="31.450775" />
        <country name="常熟市" longitude="120.831486" latitude="31.669446" />
        <country name="张家港市" longitude="120.627279" latitude="31.907812" />
        <country name="昆山市" longitude="120.965808" latitude="31.328937" />
        <country name="吴江市" longitude="120.639402" latitude="31.014847" />
        <country name="太仓市" longitude="121.158978" latitude="31.571904" />
      </city>
      <city name="南通市" longitude="120.887599" latitude="31.962661">
        <country name="崇川区" longitude="120.887599" latitude="31.962661" />
        <country name="港闸区" longitude="120.823875" latitude="32.071256" />
        <country name="海安县" longitude="120.473927" latitude="32.553985" />
        <country name="如东县" longitude="121.059244" latitude="32.387662" />
        <country name="启东市" longitude="121.678822" latitude="31.871302" />
        <country name="如皋市" longitude="120.580144" latitude="32.273616" />
        <country name="通州市" longitude="121.028859" latitude="32.081032" />
        <country name="海门市" longitude="121.31247" latitude="31.956039" />
      </city>
      <city name="连云港市" longitude="119.467017" latitude="34.638922">
        <country name="连云区" longitude="119.467017" latitude="34.638922" />
        <country name="新浦区" longitude="119.260574" latitude="34.656801" />
        <country name="海州区" longitude="119.162196" latitude="34.51416" />
        <country name="赣榆县" longitude="119.0414" latitude="34.88953" />
        <country name="东海县" longitude="118.79231" latitude="34.556383" />
        <country name="灌云县" longitude="119.392775" latitude="34.406832" />
        <country name="灌南县" longitude="119.446397" latitude="34.175195" />
      </city>
      <city name="淮安市" longitude="119.136831" latitude="33.595284">
        <country name="清河区" longitude="119.136831" latitude="33.595284" />
        <country name="楚州区" longitude="119.303107" latitude="33.504018" />
        <country name="淮阴区" longitude="118.935664" latitude="33.664059" />
        <country name="清浦区" longitude="119.025325" latitude="33.488642" />
        <country name="涟水县" longitude="119.324957" latitude="33.884155" />
        <country name="洪泽县" longitude="118.8282" latitude="33.235206" />
        <country name="盱眙县" longitude="118.538232" latitude="32.971613" />
        <country name="金湖县" longitude="119.145631" latitude="33.025834" />
      </city>
      <city name="盐城市" longitude="120.14945" latitude="33.42373">
        <country name="亭湖区" longitude="120.14945" latitude="33.42373" />
        <country name="盐都区" longitude="119.968501" latitude="33.265898" />
        <country name="响水县" longitude="119.797602" latitude="34.232797" />
        <country name="滨海县" longitude="120.026609" latitude="34.092317" />
        <country name="阜宁县" longitude="119.70499" latitude="33.711976" />
        <country name="射阳县" longitude="120.279505" latitude="33.745462" />
        <country name="建湖县" longitude="119.836497" latitude="33.488908" />
        <country name="东台市" longitude="120.563769" latitude="32.791443" />
        <country name="大丰市" longitude="120.546274" latitude="33.190868" />
      </city>
      <city name="扬州市" longitude="119.486678" latitude="32.39567">
        <country name="广陵区" longitude="119.486678" latitude="32.39567" />
        <country name="邗江区" longitude="119.458264" latitude="32.42583" />
        <country name="郊区" longitude="119.427778" latitude="32.408505" />
        <country name="宝应县" longitude="119.455651" latitude="33.225834" />
        <country name="仪征市" longitude="119.200955" latitude="32.392636" />
        <country name="高邮市" longitude="119.503407" latitude="32.835944" />
        <country name="江都市" longitude="119.701666" latitude="32.539866" />
      </city>
      <city name="镇江市" longitude="119.584822" latitude="32.201996">
        <country name="京口区" longitude="119.584822" latitude="32.201996" />
        <country name="润州区" longitude="119.43092" latitude="32.196647" />
        <country name="丹徒区" longitude="119.498972" latitude="32.114041" />
        <country name="丹阳市" longitude="119.644304" latitude="31.960263" />
        <country name="扬中市" longitude="119.845138" latitude="32.189469" />
        <country name="句容市" longitude="119.20708" latitude="31.932635" />
      </city>
      <city name="泰州市" longitude="119.921174" latitude="32.488258">
        <country name="海陵区" longitude="119.921174" latitude="32.488258" />
        <country name="高港区" longitude="119.925744" latitude="32.330075" />
        <country name="兴化市" longitude="119.996418" latitude="32.961954" />
        <country name="靖江市" longitude="120.276899" latitude="32.039443" />
        <country name="泰兴市" longitude="120.135346" latitude="32.213679" />
        <country name="姜堰市" longitude="120.090816" latitude="32.526452" />
      </city>
      <city name="宿迁市" longitude="118.27464" latitude="33.862829">
        <country name="宿城区" longitude="118.27464" latitude="33.862829" />
        <country name="宿豫区" longitude="118.343693" latitude="34.00953" />
        <country name="沭阳县" longitude="118.85775" latitude="34.154014" />
        <country name="泗阳县" longitude="118.656941" latitude="33.708801" />
        <country name="泗洪县" longitude="118.312551" latitude="33.425955" />
      </city>
    </province>
    <province name="浙江省" longitude="xxxxx" latitude="xxxxx">
      <city name="杭州市" longitude="120.180126" latitude="30.232358">
        <country name="上城区" longitude="120.180126" latitude="30.232358" />
        <country name="下城区" longitude="120.186535" latitude="30.310288" />
        <country name="江干区" longitude="120.303823" latitude="30.315832" />
        <country name="拱墅区" longitude="120.158845" latitude="30.344732" />
        <country name="西湖区" longitude="120.088993" latitude="30.207036" />
        <country name="滨江区" longitude="120.19237" latitude="30.187588" />
        <country name="萧山区" longitude="120.389081" latitude="30.172894" />
        <country name="余杭区" longitude="119.998089" latitude="30.38812" />
        <country name="桐庐县" longitude="119.560462" latitude="29.836582" />
        <country name="淳安县" longitude="118.895765" latitude="29.614714" />
        <country name="建德市" longitude="119.379533" latitude="29.487115" />
        <country name="富阳市" longitude="119.846692" latitude="30.001094" />
        <country name="临安市" longitude="119.350295" latitude="30.207684" />
      </city>
      <city name="宁波市" longitude="121.535395" latitude="29.876801">
        <country name="海曙区" longitude="121.535395" latitude="29.876801" />
        <country name="江东区" longitude="121.598001" latitude="29.875392" />
        <country name="江北区" longitude="121.493299" latitude="29.966392" />
        <country name="北仑区" longitude="121.889419" latitude="29.868332" />
        <country name="镇海区" longitude="121.61663" latitude="29.995449" />
        <country name="鄞州区" longitude="121.537835" latitude="29.785459" />
        <country name="象山县" longitude="121.858666" latitude="29.378771" />
        <country name="宁海县" longitude="121.463624" latitude="29.314474" />
        <country name="余姚市" longitude="121.152779" latitude="29.996457" />
        <country name="慈溪市" longitude="121.338408" latitude="30.189257" />
        <country name="奉化市" longitude="121.377186" latitude="29.617073" />
      </city>
      <city name="温州市" longitude="120.565799" latitude="28.067865">
        <country name="鹿城区" longitude="120.565799" latitude="28.067865" />
        <country name="龙湾区" longitude="120.811078" latitude="27.913341" />
        <country name="瓯海区" longitude="120.558404" latitude="27.972177" />
        <country name="洞头县" longitude="121.125826" latitude="27.903664" />
        <country name="永嘉县" longitude="120.668809" latitude="28.33639" />
        <country name="平阳县" longitude="120.389387" latitude="27.637701" />
        <country name="苍南县" longitude="120.445543" latitude="27.434436" />
        <country name="文成县" longitude="120.028422" latitude="27.812713" />
        <country name="泰顺县" longitude="119.884868" latitude="27.536407" />
        <country name="瑞安市" longitude="120.46834" latitude="27.829231" />
        <country name="乐清市" longitude="121.016175" latitude="28.261839" />
      </city>
      <city name="嘉兴市" longitude="120.760428" latitude="30.773992">
        <country name="秀城区" longitude="120.760428" latitude="30.773992" />
        <country name="秀洲区" longitude="120.63097" latitude="30.81277" />
        <country name="嘉善县" longitude="120.908873" latitude="30.905748" />
        <country name="海盐县" longitude="120.885576" latitude="30.526043" />
        <country name="海宁市" longitude="120.618727" latitude="30.442177" />
        <country name="平湖市" longitude="121.105839" latitude="30.716529" />
        <country name="桐乡市" longitude="120.490411" latitude="30.612341" />
      </city>
      <city name="湖州市" longitude="120.088919" latitude="30.808545">
        <country name="吴兴区" longitude="120.088919" latitude="30.808545" />
        <country name="南浔区" longitude="120.309147" latitude="30.766831" />
        <country name="德清县" longitude="120.049831" latitude="30.567583" />
        <country name="长兴县" longitude="119.81942" latitude="30.983353" />
        <country name="安吉县" longitude="119.583158" latitude="30.62637" />
      </city>
      <city name="绍兴市" longitude="120.618327" latitude="30.015793">
        <country name="越城区" longitude="120.618327" latitude="30.015793" />
        <country name="绍兴县" longitude="120.572451" latitude="29.968789" />
        <country name="新昌县" longitude="120.975702" latitude="29.414314" />
        <country name="诸暨市" longitude="120.281434" latitude="29.6994" />
        <country name="上虞市" longitude="120.889432" latitude="29.97804" />
        <country name="嵊州市" longitude="120.761431" latitude="29.591008" />
      </city>
      <city name="金华市" longitude="119.517572" latitude="28.98454">
        <country name="婺城区" longitude="119.517572" latitude="28.98454" />
        <country name="金东区" longitude="119.809227" latitude="29.155526" />
        <country name="武义县" longitude="119.720833" latitude="28.774056" />
        <country name="浦江县" longitude="119.910488" latitude="29.526266" />
        <country name="磐安县" longitude="120.567447" latitude="29.044202" />
        <country name="兰溪市" longitude="119.533338" latitude="29.284103" />
        <country name="义乌市" longitude="120.067296" latitude="29.306444" />
        <country name="东阳市" longitude="120.380818" latitude="29.237427" />
        <country name="永康市" longitude="120.108684" latitude="28.940177" />
      </city>
      <city name="衢州市" longitude="118.813003" latitude="28.998535">
        <country name="柯城区" longitude="118.813003" latitude="28.998535" />
        <country name="衢江区" longitude="118.939044" latitude="28.941983" />
        <country name="常山县" longitude="118.54767" latitude="28.973666" />
        <country name="开化县" longitude="118.33165" latitude="29.189938" />
        <country name="龙游县" longitude="119.198664" latitude="28.997079" />
        <country name="江山市" longitude="118.607086" latitude="28.58197" />
      </city>
      <city name="舟山市" longitude="122.073024" latitude="30.064847">
        <country name="定海区" longitude="122.073024" latitude="30.064847" />
        <country name="普陀区" longitude="122.278765" latitude="29.871101" />
        <country name="岱山县" longitude="122.260359" latitude="30.319416" />
        <country name="嵊泗县" longitude="122.481686" latitude="30.705004" />
      </city>
      <city name="台州市" longitude="121.467376" latitude="28.657016">
        <country name="椒江区" longitude="121.467376" latitude="28.657016" />
        <country name="黄岩区" longitude="121.088318" latitude="28.604655" />
        <country name="路桥区" longitude="121.450242" latitude="28.548659" />
        <country name="玉环县" longitude="121.284426" latitude="28.179738" />
        <country name="三门县" longitude="121.488229" latitude="29.017744" />
        <country name="天台县" longitude="120.985563" latitude="29.151779" />
        <country name="仙居县" longitude="120.640606" latitude="28.738742" />
        <country name="温岭市" longitude="121.421046" latitude="28.400554" />
        <country name="临海市" longitude="121.221919" latitude="28.857389" />
      </city>
      <city name="丽水市" longitude="119.849952" latitude="28.447361">
        <country name="莲都区" longitude="119.849952" latitude="28.447361" />
        <country name="青田县" longitude="120.146738" latitude="28.208429" />
        <country name="缙云县" longitude="120.191882" latitude="28.666326" />
        <country name="遂昌县" longitude="119.089342" latitude="28.52541" />
        <country name="松阳县" longitude="119.441013" latitude="28.41158" />
        <country name="云和县" longitude="119.54173" latitude="28.13132" />
        <country name="庆元县" longitude="119.157619" latitude="27.628046" />
        <country name="景宁畲族自治县" longitude="119.61929" latitude="27.896053" />
        <country name="龙泉市" longitude="119.082297" latitude="28.050639" />
      </city>
    </province>
    <province name="安徽省" longitude="xxxxx" latitude="xxxxx">
      <city name="合肥市" longitude="117.35921" latitude="31.8978">
        <country name="瑶海区" longitude="117.35921" latitude="31.8978" />
        <country name="庐阳区" longitude="117.19741" latitude="31.9216" />
        <country name="蜀山区" longitude="117.21407" latitude="31.83832" />
        <country name="包河区" longitude="117.34494" latitude="31.77883" />
        <country name="长丰县" longitude="117.174438" latitude="32.286111" />
        <country name="肥东县" longitude="117.575857" latitude="32.003189" />
        <country name="肥西县" longitude="117.036261" latitude="31.732638" />
      </city>
      <city name="芜湖市" longitude="118.387245" latitude="31.351966">
        <country name="镜湖区" longitude="118.387245" latitude="31.351966" />
        <country name="马塘区" longitude="118.677147" latitude="31.15138" />
        <country name="新芜区" longitude="118.384108" latitude="31.36602" />
        <country name="鸠江区" longitude="118.493974" latitude="31.375482" />
        <country name="芜湖县" longitude="118.532462" latitude="31.191699" />
        <country name="繁昌县" longitude="118.200118" latitude="31.12833" />
        <country name="南陵县" longitude="118.288216" latitude="30.895982" />
      </city>
      <city name="蚌埠市" longitude="117.478326" latitude="32.926343">
        <country name="龙子湖区" longitude="117.478326" latitude="32.926343" />
        <country name="蚌山区" longitude="117.356356" latitude="32.881523" />
        <country name="禹会区" longitude="117.305515" latitude="32.889696" />
        <country name="淮上区" longitude="117.388184" latitude="33.023815" />
        <country name="怀远县" longitude="117.042086" latitude="33.037131" />
        <country name="五河县" longitude="117.76421" latitude="33.138465" />
        <country name="固镇县" longitude="117.354034" latitude="33.272841" />
      </city>
      <city name="淮南市" longitude="117.117138" latitude="32.643536">
        <country name="大通区" longitude="117.117138" latitude="32.643536" />
        <country name="田家庵区" longitude="117.014687" latitude="32.564364" />
        <country name="谢家集区" longitude="116.908772" latitude="32.5444" />
        <country name="八公山区" longitude="116.825521" latitude="32.65239" />
        <country name="潘集区" longitude="116.866193" latitude="32.800695" />
        <country name="凤台县" longitude="116.584905" latitude="32.791416" />
      </city>
      <city name="马鞍山市" longitude="118.525917" latitude="31.744706">
        <country name="金家庄区" longitude="118.525917" latitude="31.744706" />
        <country name="花山区" longitude="118.578348" latitude="31.711627" />
        <country name="雨山区" longitude="118.554558" latitude="31.659719" />
        <country name="当涂县" longitude="118.646673" latitude="31.503024" />
      </city>
      <city name="淮北市" longitude="116.954967" latitude="34.113251">
        <country name="杜集区" longitude="116.954967" latitude="34.113251" />
        <country name="相山区" longitude="116.728962" latitude="33.988335" />
        <country name="烈山区" longitude="116.908182" latitude="33.844054" />
        <country name="濉溪县" longitude="116.736899" latitude="33.693205" />
      </city>
      <city name="铜陵市" longitude="117.810737" latitude="30.929419">
        <country name="铜官山区" longitude="117.810737" latitude="30.929419" />
        <country name="狮子山区" longitude="117.889749" latitude="30.944772" />
        <country name="郊区" longitude="117.641551" latitude="30.754631" />
        <country name="铜陵县" longitude="117.918516" latitude="30.952359" />
      </city>
      <city name="安庆市" longitude="117.152542" latitude="30.541458">
        <country name="迎江区" longitude="117.152542" latitude="30.541458" />
        <country name="大观区" longitude="116.980968" latitude="30.532487" />
        <country name="郊区" longitude="117.641551" latitude="30.754631" />
        <country name="怀宁县" longitude="116.803527" latitude="30.579025" />
        <country name="枞阳县" longitude="117.385735" latitude="30.860298" />
        <country name="潜山县" longitude="116.552816" latitude="30.758639" />
        <country name="太湖县" longitude="116.182539" latitude="30.5011" />
        <country name="宿松县" longitude="116.253518" latitude="30.108217" />
        <country name="望江县" longitude="116.688092" latitude="30.242568" />
        <country name="岳西县" longitude="116.22007" latitude="30.901821" />
        <country name="桐城市" longitude="116.953559" latitude="30.972568" />
      </city>
      <city name="黄山市" longitude="118.309637" latitude="29.716535">
        <country name="屯溪区" longitude="118.309637" latitude="29.716535" />
        <country name="黄山区" longitude="118.077546" latitude="30.277746" />
        <country name="徽州区" longitude="118.278591" latitude="29.90214" />
        <country name="歙县" longitude="118.575156" latitude="29.871177" />
        <country name="休宁县" longitude="118.093082" latitude="29.66912" />
        <country name="黟县" longitude="117.91075" latitude="30.014778" />
        <country name="祁门县" longitude="117.600528" latitude="29.873706" />
      </city>
      <city name="滁州市" longitude="118.337569" latitude="32.338458">
        <country name="琅琊区" longitude="118.337569" latitude="32.338458" />
        <country name="南谯区" longitude="118.270828" latitude="32.310209" />
        <country name="来安县" longitude="118.53563" latitude="32.473712" />
        <country name="全椒县" longitude="118.105778" latitude="32.069933" />
        <country name="定远县" longitude="117.665965" latitude="32.473259" />
        <country name="凤阳县" longitude="117.611472" latitude="32.792215" />
        <country name="天长市" longitude="118.972913" latitude="32.721214" />
        <country name="明光市" longitude="118.140727" latitude="32.811836" />
      </city>
      <city name="阜阳市" longitude="115.727727" latitude="32.867689">
        <country name="颍州区" longitude="115.727727" latitude="32.867689" />
        <country name="颍东区" longitude="116.039985" latitude="32.941585" />
        <country name="颍泉区" longitude="115.734026" latitude="33.07351" />
        <country name="临泉县" longitude="115.248461" latitude="32.909769" />
        <country name="太和县" longitude="115.648756" latitude="33.337748" />
        <country name="阜南县" longitude="115.654099" latitude="32.655881" />
        <country name="颍上县" longitude="116.265314" latitude="32.66246" />
        <country name="界首市" longitude="115.398643" latitude="33.226193" />
      </city>
      <city name="宿州市" longitude="116.988692" latitude="33.636772">
        <country name="墉桥区" longitude="116.988692" latitude="33.636772" />
        <country name="砀山县" longitude="116.420282" latitude="34.454057" />
        <country name="萧县" longitude="116.812422" latitude="34.20853" />
        <country name="灵璧县" longitude="117.543127" latitude="33.690737" />
        <country name="泗县" longitude="117.890359" latitude="33.544347" />
      </city>
      <city name="巢湖市" longitude="117.728064" latitude="31.650689">
        <country name="居巢区" longitude="117.728064" latitude="31.650689" />
        <country name="庐江县" longitude="117.332167" latitude="31.273693" />
        <country name="无为县" longitude="117.864823" latitude="31.256984" />
        <country name="含山县" longitude="118.05207" latitude="31.662082" />
        <country name="和县" longitude="118.293882" latitude="31.716472" />
      </city>
      <city name="六安市" longitude="116.661941" latitude="31.631258">
        <country name="金安区" longitude="116.661941" latitude="31.631258" />
        <country name="裕安区" longitude="116.302573" latitude="31.753039" />
        <country name="寿县" longitude="116.768939" latitude="32.262396" />
        <country name="霍邱县" longitude="116.173521" latitude="32.201507" />
        <country name="舒城县" longitude="116.828559" latitude="31.310003" />
        <country name="金寨县" longitude="115.779315" latitude="31.479093" />
        <country name="霍山县" longitude="116.246675" latitude="31.287056" />
      </city>
      <city name="亳州市" longitude="115.812814" latitude="33.782924">
        <country name="谯城区" longitude="115.812814" latitude="33.782924" />
        <country name="涡阳县" longitude="116.22355" latitude="33.557949" />
        <country name="蒙城县" longitude="116.591512" latitude="33.223044" />
        <country name="利辛县" longitude="116.166272" latitude="33.157376" />
      </city>
      <city name="池州市" longitude="117.508478" latitude="30.514086">
        <country name="贵池区" longitude="117.508478" latitude="30.514086" />
        <country name="东至县" longitude="117.006827" latitude="30.03407" />
        <country name="石台县" longitude="117.538282" latitude="30.199161" />
        <country name="青阳县" longitude="117.908159" latitude="30.602013" />
      </city>
      <city name="宣城市" longitude="118.797803" latitude="30.943631">
        <country name="宣州区" longitude="118.797803" latitude="30.943631" />
        <country name="郎溪县" longitude="119.167904" latitude="31.100124" />
        <country name="广德县" longitude="119.364713" latitude="30.89395" />
        <country name="泾县" longitude="118.37604" latitude="30.599287" />
        <country name="绩溪县" longitude="118.663777" latitude="30.162401" />
        <country name="旌德县" longitude="118.482898" latitude="30.321833" />
        <country name="宁国市" longitude="118.997025" latitude="30.502936" />
      </city>
    </province>
    <province name="福建省" longitude="xxxxx" latitude="xxxxx">
      <city name="福州市" longitude="119.290633" latitude="26.097871">
        <country name="鼓楼区" longitude="119.290633" latitude="26.097871" />
        <country name="台江区" longitude="119.324063" latitude="26.062154" />
        <country name="仓山区" longitude="119.334936" latitude="26.019664" />
        <country name="马尾区" longitude="119.510802" latitude="26.08265" />
        <country name="晋安区" longitude="119.314923" latitude="26.221752" />
        <country name="闽侯县" longitude="119.122383" latitude="26.182432" />
        <country name="连江县" longitude="119.568339" latitude="26.301591" />
        <country name="罗源县" longitude="119.465234" latitude="26.506326" />
        <country name="闽清县" longitude="118.778803" latitude="26.212273" />
        <country name="永泰县" longitude="118.794741" latitude="25.857384" />
        <country name="平潭县" longitude="119.766453" latitude="25.537738" />
        <country name="福清市" longitude="119.377547" latitude="25.638121" />
        <country name="长乐市" longitude="119.56272" latitude="25.915538" />
      </city>
      <city name="厦门市" longitude="118.12326" latitude="24.45654">
        <country name="思明区" longitude="118.12326" latitude="24.45654" />
        <country name="海沧区" longitude="117.983956" latitude="24.53619" />
        <country name="湖里区" longitude="118.144676" latitude="24.521974" />
        <country name="集美区" longitude="118.029412" latitude="24.640973" />
        <country name="同安区" longitude="118.114685" latitude="24.781705" />
        <country name="翔安区" longitude="118.280803" latitude="24.675485" />
      </city>
      <city name="莆田市" longitude="118.954443" latitude="25.433375">
        <country name="城厢区" longitude="118.954443" latitude="25.433375" />
        <country name="涵江区" longitude="119.079039" latitude="25.604742" />
        <country name="荔城区" longitude="119.074103" latitude="25.427592" />
        <country name="秀屿区" longitude="119.131466" latitude="25.276365" />
        <country name="仙游县" longitude="118.704626" latitude="25.468258" />
      </city>
      <city name="三明市" longitude="117.630501" latitude="26.307449">
        <country name="梅列区" longitude="117.630501" latitude="26.307449" />
        <country name="三元区" longitude="117.516896" latitude="26.173967" />
        <country name="明溪县" longitude="117.218599" latitude="26.418484" />
        <country name="清流县" longitude="116.921193" latitude="26.099298" />
        <country name="宁化县" longitude="116.678118" latitude="26.310073" />
        <country name="大田县" longitude="117.817997" latitude="25.797449" />
        <country name="尤溪县" longitude="118.253868" latitude="26.150594" />
        <country name="沙县" longitude="117.818846" latitude="26.446506" />
        <country name="将乐县" longitude="117.40084" latitude="26.732329" />
        <country name="泰宁县" longitude="117.12566" latitude="26.865477" />
        <country name="建宁县" longitude="116.793071" latitude="26.817741" />
        <country name="永安市" longitude="117.328535" latitude="25.919433" />
      </city>
      <city name="泉州市" longitude="118.568455" latitude="24.905745">
        <country name="鲤城区" longitude="118.568455" latitude="24.905745" />
        <country name="丰泽区" longitude="118.607432" latitude="24.936275" />
        <country name="洛江区" longitude="118.643453" latitude="25.133414" />
        <country name="泉港区" longitude="118.819017" latitude="25.173479" />
        <country name="惠安县" longitude="118.809473" latitude="24.991871" />
        <country name="安溪县" longitude="117.911632" latitude="25.125684" />
        <country name="永春县" longitude="118.140971" latitude="25.395599" />
        <country name="德化县" longitude="118.258039" latitude="25.674049" />
        <country name="金门县" longitude="118.379772" latitude="24.453685" />
        <country name="石狮市" longitude="118.692481" latitude="24.744894" />
        <country name="晋江市" longitude="118.558651" latitude="24.729638" />
        <country name="南安市" longitude="118.388981" latitude="25.017973" />
      </city>
      <city name="漳州市" longitude="117.633366" latitude="24.575089">
        <country name="芗城区" longitude="117.633366" latitude="24.575089" />
        <country name="龙文区" longitude="117.704037" latitude="24.537177" />
        <country name="云霄县" longitude="117.338111" latitude="23.984925" />
        <country name="漳浦县" longitude="117.691456" latitude="24.13461" />
        <country name="诏安县" longitude="117.132942" latitude="23.874041" />
        <country name="长泰县" longitude="117.812987" latitude="24.744594" />
        <country name="东山县" longitude="117.425416" latitude="23.69111" />
        <country name="南靖县" longitude="117.293055" latitude="24.668806" />
        <country name="平和县" longitude="117.200721" latitude="24.324491" />
        <country name="华安县" longitude="117.543805" latitude="24.918688" />
        <country name="龙海市" longitude="117.80759" latitude="24.398817" />
      </city>
      <city name="南平市" longitude="118.254737" latitude="26.590155">
        <country name="延平区" longitude="118.254737" latitude="26.590155" />
        <country name="顺昌县" longitude="117.873681" latitude="26.908712" />
        <country name="浦城县" longitude="118.524298" latitude="27.945164" />
        <country name="光泽县" longitude="117.355536" latitude="27.655598" />
        <country name="松溪县" longitude="118.765689" latitude="27.610704" />
        <country name="政和县" longitude="118.971671" latitude="27.324782" />
        <country name="邵武市" longitude="117.480572" latitude="27.235197" />
        <country name="武夷山市" longitude="118.011543" latitude="27.748135" />
        <country name="建瓯市" longitude="118.485147" latitude="27.044914" />
        <country name="建阳市" longitude="118.067793" latitude="27.408381" />
      </city>
      <city name="龙岩市" longitude="117.086322" latitude="25.222206">
        <country name="新罗区" longitude="117.086322" latitude="25.222206" />
        <country name="长汀县" longitude="116.371884" latitude="25.696958" />
        <country name="永定县" longitude="116.825552" latitude="24.761827" />
        <country name="上杭县" longitude="116.568669" latitude="25.126526" />
        <country name="武平县" longitude="116.135917" latitude="25.139021" />
        <country name="连城县" longitude="116.821448" latitude="25.604177" />
        <country name="漳平市" longitude="117.451722" latitude="25.379998" />
      </city>
      <city name="宁德市" longitude="119.454559" latitude="26.763865">
        <country name="蕉城区" longitude="119.454559" latitude="26.763865" />
        <country name="霞浦县" longitude="119.990551" latitude="26.868877" />
        <country name="古田县" longitude="118.87954" latitude="26.618899" />
        <country name="屏南县" longitude="118.989291" latitude="26.921562" />
        <country name="寿宁县" longitude="119.50552" latitude="27.42623" />
        <country name="周宁县" longitude="119.313326" latitude="27.094313" />
        <country name="柘荣县" longitude="119.887522" latitude="27.207068" />
        <country name="福安市" longitude="119.656277" latitude="27.055897" />
        <country name="福鼎市" longitude="120.198307" latitude="27.224829" />
      </city>
    </province>
    <province name="江西省" longitude="xxxxx" latitude="xxxxx">
      <city name="南昌市" longitude="115.910148" latitude="28.692375">
        <country name="东湖区" longitude="115.910148" latitude="28.692375" />
        <country name="西湖区" longitude="115.898948" latitude="28.657326" />
        <country name="青云谱区" longitude="115.921954" latitude="28.636601" />
        <country name="湾里区" longitude="115.75048" latitude="28.800557" />
        <country name="青山湖区" longitude="115.86231" latitude="28.74226" />
        <country name="南昌县" longitude="116.071261" latitude="28.620772" />
        <country name="新建县" longitude="115.952954" latitude="28.812629" />
        <country name="安义县" longitude="115.595202" latitude="28.836412" />
        <country name="进贤县" longitude="116.317458" latitude="28.441758" />
      </city>
      <city name="景德镇市" longitude="117.1862" latitude="29.272155">
        <country name="昌江区" longitude="117.1862" latitude="29.272155" />
        <country name="珠山区" longitude="117.234119" latitude="29.303231" />
        <country name="浮梁县" longitude="117.308979" latitude="29.556556" />
        <country name="乐平市" longitude="117.273279" latitude="28.969928" />
      </city>
      <city name="萍乡市" longitude="113.878869" latitude="27.645395">
        <country name="安源区" longitude="113.878869" latitude="27.645395" />
        <country name="湘东区" longitude="113.739818" latitude="27.53371" />
        <country name="莲花县" longitude="113.959777" latitude="27.223445" />
        <country name="上栗县" longitude="113.867806" latitude="27.83226" />
        <country name="芦溪县" longitude="114.070007" latitude="27.578023" />
      </city>
      <city name="九江市" longitude="116.009736" latitude="29.666586">
        <country name="庐山区" longitude="116.009736" latitude="29.666586" />
        <country name="浔阳区" longitude="116.002768" latitude="29.717849" />
        <country name="九江县" longitude="115.842035" latitude="29.64023" />
        <country name="武宁县" longitude="115.023159" latitude="29.263844" />
        <country name="修水县" longitude="114.446192" latitude="29.000021" />
        <country name="永修县" longitude="115.742475" latitude="29.141311" />
        <country name="德安县" longitude="115.634084" latitude="29.401728" />
        <country name="星子县" longitude="115.964883" latitude="29.360271" />
        <country name="都昌县" longitude="116.342048" latitude="29.356215" />
        <country name="湖口县" longitude="116.292561" latitude="29.668061" />
        <country name="彭泽县" longitude="116.629332" latitude="29.834597" />
        <country name="瑞昌市" longitude="115.459686" latitude="29.628545" />
      </city>
      <city name="新余市" longitude="115.007851" latitude="27.850578">
        <country name="渝水区" longitude="115.007851" latitude="27.850578" />
        <country name="分宜县" longitude="114.678163" latitude="27.844993" />
      </city>
      <city name="鹰潭市" longitude="117.057706" latitude="28.247205">
        <country name="月湖区" longitude="117.057706" latitude="28.247205" />
        <country name="余江县" longitude="116.921574" latitude="28.32107" />
        <country name="贵溪市" longitude="117.19787" latitude="28.190604" />
      </city>
      <city name="赣州市" longitude="114.937365" latitude="25.838711">
        <country name="章贡区" longitude="114.937365" latitude="25.838711" />
        <country name="赣县" longitude="115.072586" latitude="25.902025" />
        <country name="信丰县" longitude="114.9818" latitude="25.286018" />
        <country name="大余县" longitude="114.36649" latitude="25.448472" />
        <country name="上犹县" longitude="114.402605" latitude="25.939253" />
        <country name="崇义县" longitude="114.199337" latitude="25.679632" />
        <country name="安远县" longitude="115.396613" latitude="25.238854" />
        <country name="龙南县" longitude="114.731825" latitude="24.772706" />
        <country name="定南县" longitude="115.09388" latitude="24.82416" />
        <country name="全南县" longitude="114.522343" latitude="24.853233" />
        <country name="宁都县" longitude="116.012116" latitude="26.590232" />
        <country name="于都县" longitude="115.508893" latitude="25.936772" />
